{
  "routes": [
    {
      "day": 1,
      "start": { "lat": 34.4347, "lng": 135.2441 },
      "end": { "lat": 34.2307, "lng": 135.1733 },
      "color": "#e74c3c",
      "label": "D1: 关西机场 → 和歌山酒店"
    },
    {
      "day": 2,
      "start": { "lat": 34.2307, "lng": 135.1733 },
      "end": { "lat": 34.2133, "lng": 135.3167 },
      "color": "#3498db",
      "label": "D2: 和歌山 → 贵志站(小玉列车)"
    },
    {
      "day": 2,
      "start": { "lat": 34.2307, "lng": 135.1733 },
      "end": { "lat": 33.6917, "lng": 135.3361 },
      "color": "#3498db",
      "label": "D2: 贵志站 → 酒店取车 → 白滨温泉游览"
    },
    {
      "day": 2,
      "start": { "lat": 33.6917, "lng": 135.3361 },
      "end": { "lat": 33.4559, "lng": 135.7757 },
      "color": "#3498db",
      "label": "D2: 白滨 → Fukuro住宿"
    },
    {
      "day": 3,
      "start": { "lat": 33.4559, "lng": 135.7757 },
      "end": { "lat": 33.4708, "lng": 135.7881 },
      "color": "#f39c12",
      "label": "D3: Fukuro → 串本(本州最南端)"
    },
    {
      "day": 3,
      "start": { "lat": 33.4708, "lng": 135.7881 },
      "end": { "lat": 33.6685, "lng": 135.9034 },
      "color": "#f39c12",
      "label": "D3: 串本 → 熊野古道（大门板）"
    },
    {
      "day": 3,
      "start": { "lat": 33.6685, "lng": 135.9034 },
      "end": { "lat": 33.6276, "lng": 135.9524 },
      "color": "#f39c12",
      "label": "D3: 熊野古道(那智大社+瀑布) → 浦岛温泉(纪伊胜浦)"
    },
    {
      "day": 4,
      "start": { "lat": 33.6276, "lng": 135.9524 },
      "end": { "lat": 33.6352, "lng": 135.9503 },
      "color": "#9b59b6",
      "label": "D4: 纪伊胜浦 → 孤独鸟居+金枪鱼市场"
    },
    {
      "day": 4,
      "start": { "lat": 33.6352, "lng": 135.9503 },
      "end": { "lat": 35.0124, "lng": 135.7493 },
      "color": "#9b59b6",
      "label": "D4: 孤独鸟居 → 京都(长距离)"
    },
    {
      "day": 5,
      "start": { "lat": 35.0115, "lng": 135.7478 },
      "end": { "lat": 35.12, "lng": 135.7667 },
      "color": "#27ae60",
      "label": "D5: 京都 → 大原三千院"
    },
    {
      "day": 5,
      "start": { "lat": 35.12, "lng": 135.7667 },
      "end": { "lat": 35.1331, "lng": 135.7644 },
      "color": "#27ae60",
      "label": "D5: 三千院 → 贵船神社"
    },
    {
      "day": 5,
      "start": { "lat": 35.1331, "lng": 135.7644 },
      "end": { "lat": 35.0115, "lng": 135.7478 },
      "color": "#27ae60",
      "label": "D5: 贵船 → 返回京都"
    },
    {
      "day": 6,
      "start": { "lat": 35.0115, "lng": 135.7478 },
      "end": { "lat": 35.0169, "lng": 135.6762 },
      "color": "#16a085",
      "label": "D6: 京都 → 岚山"
    },
    {
      "day": 6,
      "start": { "lat": 35.0169, "lng": 135.6762 },
      "end": { "lat": 35.0115, "lng": 135.7478 },
      "color": "#16a085",
      "label": "D6: 岚山 → 返回京都"
    },
    {
      "day": 7,
      "start": { "lat": 35.0115, "lng": 135.7478 },
      "end": { "lat": 34.9949, "lng": 135.785 },
      "color": "#c0392b",
      "label": "D7: 京都 → 清水寺"
    },
    {
      "day": 7,
      "start": { "lat": 34.9949, "lng": 135.785 },
      "end": { "lat": 34.9671, "lng": 135.7727 },
      "color": "#c0392b",
      "label": "D7: 清水寺 → 伏见稻荷"
    },
    {
      "day": 7,
      "start": { "lat": 34.9671, "lng": 135.7727 },
      "end": { "lat": 34.6560, "lng": 135.5060 },
      "color": "#c0392b",
      "label": "D7: 伏见稻荷 → 大阪酒店check-in"
    },
    {
      "day": 7,
      "start": { "lat": 34.6560, "lng": 135.5060 },
      "end": { "lat": 34.4347, "lng": 135.2441 },
      "color": "#c0392b",
      "label": "D7: 大阪酒店 → 关西机场(还车)"
    },
    {
      "day": 7,
      "start": { "lat": 34.4347, "lng": 135.2441 },
      "end": { "lat": 34.6560, "lng": 135.5060 },
      "color": "#c0392b",
      "label": "D7: 关西机场 → 大阪难波"
    },
    {
      "day": 8,
      "start": { "lat": 34.6560, "lng": 135.5060 },
      "end": { "lat": 34.6653, "lng": 135.4322 },
      "color": "#8e44ad",
      "label": "D8: 难波 → 环球影城"
    },
    {
      "day": 8,
      "start": { "lat": 34.6653, "lng": 135.4322 },
      "end": { "lat": 34.6560, "lng": 135.5060 },
      "color": "#8e44ad",
      "label": "D8: 环球影城 → 返回难波"
    },
    {
      "day": 9,
      "start": { "lat": 34.6560, "lng": 135.5060 },
      "end": { "lat": 34.65, "lng": 135.4167 },
      "color": "#2980b9",
      "label": "D9: 难波 → 2025世博会"
    },
    {
      "day": 9,
      "start": { "lat": 34.65, "lng": 135.4167 },
      "end": { "lat": 34.6560, "lng": 135.5060 },
      "color": "#2980b9",
      "label": "D9: 世博会 → 返回难波"
    },
    {
      "day": 10,
      "start": { "lat": 34.6560, "lng": 135.5060 },
      "end": { "lat": 34.6873, "lng": 135.5262 },
      "color": "#d35400",
      "label": "D10: 难波 → 大阪城"
    },
    {
      "day": 10,
      "start": { "lat": 34.6873, "lng": 135.5262 },
      "end": { "lat": 34.6638, "lng": 135.5048 },
      "color": "#d35400",
      "label": "D10: 大阪城 → 黑门市场"
    }
  ],
  "returnRoute": {
    "start": { "lat": 34.6638, "lng": 135.5048 },
    "end": { "lat": 34.4347, "lng": 135.2441 },
    "color": "#95a5a6",
    "label": "D10: 黑门市场 → 关西机场(返程)"
  }
}
